{
"type": "FeatureCollection",
"features": [
{ "type": "Feature", "properties": { "id": 1000, "name": "Maaars Cafe", "description": "Best Restaurant Ever", "specialties": ["Chicken", "Barbeque", "Burger"], "type": "Casual Dining" }, "geometry": { "type": "Point", "coordinates": [ 123.8984656, 10.3252212 ] } },
{ "type": "Feature", "properties": { "id": 1001, "name": "Café Lagoon", "description": "Best Restaurant Ever", "specialties": ["Pasta"], "type": "Casual Dining" }, "geometry": { "type": "Point", "coordinates": [ 123.904109, 10.3286833 ] } },
{ "type": "Feature", "properties": { "id": 1002, "name": "Mansion of Lechon", "description": "Best Restaurant Ever", "specialties": ["Pork"], "type": "Casual Dining" }, "geometry": { "type": "Point", "coordinates": [ 123.9057612, 10.3294432 ] } },
{ "type": "Feature", "properties": { "id": 1003, "name": "JapanJapan", "description": "Best Restaurant Ever", "specialties": ["Chicken", "Green Salad", "Pork"], "type": "Casual Dining" }, "geometry": { "type": "Point", "coordinates": [ 123.903079, 10.3313853 ] } },
{ "type": "Feature", "properties": { "id": 1004, "name": "Casa Berde", "description": "Best Restaurant Ever", "specialties": ["Beef"], "type": "Casual Dining" }, "geometry": { "type": "Point", "coordinates": [ 123.9015985, 10.3329897 ] } },
{ "type": "Feature", "properties": { "id": 1005, "name": "Vatolata", "description": "Best Restaurant Ever", "specialties": ["Pizza", "Chicken"], "type": "Fine Dining" }, "geometry": { "type": "Point", "coordinates": [ 123.8955688, 10.3107393 ] } },
{ "type": "Feature", "properties": { "id": 1006, "name": "Café Marcow", "description": "Best Restaurant Ever", "specialties": ["Cakes & Pastries", "Green Salad", "Desserts"], "type": "Fine Dining" }, "geometry": { "type": "Point", "coordinates": [ 123.8965988, 10.3074459 ] } },
{ "type": "Feature", "properties": { "id": 1007, "name": "The Tinder Basket", "description": "Best Restaurant Ever", "specialties": ["Pizza", "Chicken"], "type": "Fine Dining" }, "geometry": { "type": "Point", "coordinates": [ 123.9026928, 10.3138849 ] } },
{ "type": "Feature", "properties": { "id": 1008, "name": "Chateau de Bugsay", "description": "Best Restaurant Ever", "specialties": ["Chicken", "Barbeque", "Burger"], "type": "Fine Dining" }, "geometry": { "type": "Point", "coordinates": [ 123.9059329, 10.3158271 ] } },
{ "type": "Feature", "properties": { "id": 1009, "name": "Suchisake", "description": "Best Restaurant Ever", "specialties": ["Chicken", "Barbeque", "Burger"], "type": "Fine Dining" }, "geometry": { "type": "Point", "coordinates": [ 123.9000964, 10.3190781 ] } },
{ "type": "Feature", "properties": { "id": 1010, "name": "Lantay Native Restaurant", "description": "Best Restaurant Ever", "specialties": ["Green Salad"], "type": "Native" }, "geometry": { "type": "Point", "coordinates": [ 123.9058685, 10.3101904 ] } },
{ "type": "Feature", "properties": { "id": 1011, "name": "Lutu-an Native Restaurant", "description": "Best Restaurant Ever", "specialties": ["Chicken", "Pizza", "Burger"], "type": "Native" }, "geometry": { "type": "Point", "coordinates": [ 123.9065981, 10.3055037 ] } },
{ "type": "Feature", "properties": { "id": 1012, "name": "Parola", "description": "Best Restaurant Ever", "specialties": ["Pizza", "Chicken"], "type": "Native" }, "geometry": { "type": "Point", "coordinates": [ 123.9100313, 10.3128926 ] } },
{ "type": "Feature", "properties": { "id": 1013, "name": "Bandoori", "description": "Best Restaurant Ever", "specialties": ["Chicken", "Pizza", "Burger"], "type": "Native" }, "geometry": { "type": "Point", "coordinates": [ 123.8907623, 10.3170726 ] } },
{ "type": "Feature", "properties": { "id": 1014, "name": "Aziri Native Restaurant", "description": "Best Restaurant Ever", "specialties": ["Burger","Desserts", "Cakes & Pastries"], "type": "Native" }, "geometry": { "type": "Point", "coordinates": [ 123.8966632, 10.3176426 ] } },
{ "type": "Feature", "properties": { "id": 1015, "name": "VonChon", "description": "Best Restaurant Ever", "specialties": ["Chicken", "Pizza"], "type": "Quick Bites" }, "geometry": { "type": "Point", "coordinates": [ 123.8977146, 10.3288311 ] } },
{ "type": "Feature", "properties": { "id": 1016, "name": "Larshan Barbeque", "description": "Best Restaurant Ever", "specialties": ["Burger", "Barbeque", "Beef", "Pork", "Pasta", "Green Salad"], "type": "Quick Bites" }, "geometry": { "type": "Point", "coordinates": [ 123.9045596, 10.3206825 ] } },
{ "type": "Feature", "properties": { "id": 1017, "name": "Burger Point", "description": "Best Restaurant Ever", "specialties": ["Barbeque", "Desserts", "Cakes & Pastries"], "type": "Quick Bites" }, "geometry": { "type": "Point", "coordinates": [ 123.9082074, 10.3259812 ] } },
{ "type": "Feature", "properties": { "id": 1018, "name": "AAA BBQ", "description": "Best Restaurant Ever", "specialties": ["Chicken", "Pizza", "Burger"], "type": "Quick Bites" }, "geometry": { "type": "Point", "coordinates": [ 123.9097095, 10.3233213 ] } },
{ "type": "Feature", "properties": { "id": 1019, "name": "Pokyo-Pokyo", "description": "Best Restaurant Ever", "specialties": ["Beef", "Pork", "Pasta", "Green Salad"], "type": "Quick Bites" }, "geometry": { "type": "Point", "coordinates": [ 123.9102674, 10.3222869 ] } }
]
}
