{
"type": "FeatureCollection",
"features": [
{ "type": "Feature", "properties": { "id": 1000, "name": "Interpace", "description": "Best Store Ever" }, "geometry": { "type": "Point", "coordinates": [ 123.8984656, 10.3252212 ] } },
{ "type": "Feature", "properties": { "id": 1001, "name": "The SM Store", "description": "Best Store Ever" }, "geometry": { "type": "Point", "coordinates": [ 123.904109, 10.3286833 ] } },
{ "type": "Feature", "properties": { "id": 1002, "name": "Gaisano", "description": "Best Store Ever" }, "geometry": { "type": "Point", "coordinates": [ 123.9057612, 10.3294432 ] } },
{ "type": "Feature", "properties": { "id": 1003, "name": "Miniso", "description": "Best Store Ever" }, "geometry": { "type": "Point", "coordinates": [ 123.903079, 10.3313853 ] } },
{ "type": "Feature", "properties": { "id": 1004, "name": "Japan Home", "description": "Best Store Ever" }, "geometry": { "type": "Point", "coordinates": [ 123.9015985, 10.3329897 ] } },
{ "type": "Feature", "properties": { "id": 1005, "name": "EZ Shop", "description": "Best Store Ever" }, "geometry": { "type": "Point", "coordinates": [ 123.8955688, 10.3107393 ] } },
{ "type": "Feature", "properties": { "id": 1006, "name": "Planet Bubbles", "description": "Best Store Ever" }, "geometry": { "type": "Point", "coordinates": [ 123.8965988, 10.3074459 ] } },
{ "type": "Feature", "properties": { "id": 1007, "name": "Coffee Bean", "description": "Best Store Ever" }, "geometry": { "type": "Point", "coordinates": [ 123.9026928, 10.3138849 ] } },
{ "type": "Feature", "properties": { "id": 1008, "name": "Silicon Valley", "description": "Best Store Ever" }, "geometry": { "type": "Point", "coordinates": [ 123.9059329, 10.3158271 ] } },
{ "type": "Feature", "properties": { "id": 1009, "name": "Octagon", "description": "Best Store Ever" }, "geometry": { "type": "Point", "coordinates": [ 123.9000964, 10.3190781 ] } },
{ "type": "Feature", "properties": { "id": 1010, "name": "CD-R King", "description": "Best Store Ever" }, "geometry": { "type": "Point", "coordinates": [ 123.9058685, 10.3101904 ] } },
{ "type": "Feature", "properties": { "id": 1011, "name": "Colombia", "description": "Best Store Ever" }, "geometry": { "type": "Point", "coordinates": [ 123.9065981, 10.3055037 ] } },
{ "type": "Feature", "properties": { "id": 1012, "name": "Uniqlo", "description": "Best Store Ever" }, "geometry": { "type": "Point", "coordinates": [ 123.9100313, 10.3128926 ] } },
{ "type": "Feature", "properties": { "id": 1013, "name": "The Health Shop", "description": "Best Store Ever" }, "geometry": { "type": "Point", "coordinates": [ 123.8907623, 10.3170726 ] } },
{ "type": "Feature", "properties": { "id": 1014, "name": "Belo", "description": "Best Store Ever" }, "geometry": { "type": "Point", "coordinates": [ 123.8966632, 10.3176426 ] } },
{ "type": "Feature", "properties": { "id": 1015, "name": "Macy's Camera Shop", "description": "Best Store Ever" }, "geometry": { "type": "Point", "coordinates": [ 123.8977146, 10.3288311 ] } },
{ "type": "Feature", "properties": { "id": 1016, "name": "Wired Systems", "description": "Best Store Ever" }, "geometry": { "type": "Point", "coordinates": [ 123.9045596, 10.3206825 ] } },
{ "type": "Feature", "properties": { "id": 1017, "name": "George Optical", "description": "Best Store Ever" }, "geometry": { "type": "Point", "coordinates": [ 123.9082074, 10.3259812 ] } },
{ "type": "Feature", "properties": { "id": 1018, "name": "Digi Store", "description": "Best Store Ever" }, "geometry": { "type": "Point", "coordinates": [ 123.9097095, 10.3233213 ] } },
{ "type": "Feature", "properties": { "id": 1019, "name": "Alter Shop", "description": "Best Store Ever" }, "geometry": { "type": "Point", "coordinates": [ 123.9102674, 10.3222869 ] } }
]
}
